{
  "events": [
    {
      "name": "Tributo a Mago de Oz",
      "genre": "Música",
      "subgenre": "Folk Metal",
      "tags": ["magodeoz", "folkmetal", "gaia", "duendes", "hadas"],
      "address": "Avenida 23 Tablaje #4035397314",
      "city": "Mérida",
      "state": "Yucatán",
      "location": "https://maps.app.goo.gl/RpKqB3m51m7GfXf58",
      "date": "20/09/2025",
      "image": "https://cdn.arema.dev/live/eventos/10606.jpg"
    },
    {
      "name": "Noche de Jazz en Vivo",
      "genre": "Música",
      "subgenre": "Jazz",
      "tags": ["jazz", "envivo", "saxofon", "piano", "blues"],
      "address": "Calle 60 #491 x 57 y 59 Centro",
      "city": "Mérida",
      "state": "Yucatán",
      "location": "https://maps.app.goo.gl/abc123example",
      "date": "18/09/2025",
      "image": "https://images.unsplash.com/photo-1493225457124-a3eb161ffa5f"
    },
    {
      "name": "Romeo y Julieta",
      "genre": "Teatro",
      "subgenre": "Drama",
      "tags": ["shakespeare", "clasico", "romance", "tragedia", "teatro"],
      "address": "Calle 62 #495 x 59 y 61",
      "city": "Mérida",
      "state": "Yucatán",
      "location": "https://maps.app.goo.gl/def456example",
      "date": "18/09/2025",
      "image": "https://images.unsplash.com/photo-1507003211169-0a1dd7228f2d"
    },
    {
      "name": "Festival de Salsa Mexicana",
      "genre": "Música",
      "subgenre": "Salsa",
      "tags": ["salsa", "baile", "mexico", "festival", "tropical"],
      "address": "Parque de las Américas",
      "city": "Mérida",
      "state": "Yucatán",
      "location": "https://maps.app.goo.gl/ghi789example",
      "date": "19/09/2025",
      "image": "https://images.unsplash.com/photo-1571019613454-1cb2f99b2d8b"
    },
    {
      "name": "Stand Up Comedy Night",
      "genre": "Teatro",
      "subgenre": "Comedia",
      "tags": ["standup", "humor", "comedia", "risas", "mexicano"],
      "address": "Prolongación Montejo #489 x 41A",
      "city": "Mérida",
      "state": "Yucatán",
      "location": "https://maps.app.goo.gl/jkl012example",
      "date": "18/09/2025",
      "image": "https://images.unsplash.com/photo-1576267423445-b2e0074d68a4"
    },
    {
      "name": "Concierto de Rock Alternativo",
      "genre": "Música",
      "subgenre": "Rock Alternativo",
      "tags": ["rock", "alternativo", "indie", "guitarra", "moderno"],
      "address": "Av. Colón #506 x 62A y 64",
      "city": "Mérida",
      "state": "Yucatán",
      "location": "https://maps.app.goo.gl/mno345example",
      "date": "20/09/2025",
      "image": "https://images.unsplash.com/photo-1540039155733-5bb30b53aa14"
    },
    {
      "name": "Exposición de Arte Contemporáneo",
      "genre": "Arte",
      "subgenre": "Contemporáneo",
      "tags": ["arte", "contemporaneo", "pintura", "escultura", "galeria"],
      "address": "Calle 59 #498 x 58 y 60 Centro",
      "city": "Mérida",
      "state": "Yucatán",
      "location": "https://maps.app.goo.gl/pqr678example",
      "date": "18/09/2025",
      "image": "https://images.unsplash.com/photo-1541961017774-22349e4a1262"
    },
    {
      "name": "Noche de Trova Yucateca",
      "genre": "Música",
      "subgenre": "Trova",
      "tags": ["trova", "yucatan", "tradicional", "guitarra", "regional"],
      "address": "Plaza Grande, Calle 61 x 60 y 62",
      "city": "Mérida",
      "state": "Yucatán",
      "location": "https://maps.app.goo.gl/stu901example",
      "date": "19/09/2025",
      "image": "https://images.unsplash.com/photo-1511735111819-9a3f7709049c"
    },
    {
      "name": "Concierto de Música Electrónica",
      "genre": "Música",
      "subgenre": "Electrónica",
      "tags": ["electronica", "dj", "house", "techno", "dance"],
      "address": "Calle 47 #463-B x 52 y 54",
      "city": "Mérida",
      "state": "Yucatán",
      "location": "https://maps.app.goo.gl/vwx234example",
      "date": "21/09/2025",
      "image": "https://images.unsplash.com/photo-1470229722913-7c0e2dbbafd3"
    },
    {
      "name": "Obra Infantil: El Patito Feo",
      "genre": "Teatro",
      "subgenre": "Infantil",
      "tags": ["infantil", "patito", "familia", "niños", "cuento"],
      "address": "Calle 57 #481 x 56 y 58",
      "city": "Mérida",
      "state": "Yucatán",
      "location": "https://maps.app.goo.gl/yza567example",
      "date": "19/09/2025",
      "image": "https://images.unsplash.com/photo-1578662996442-48f60103fc96"
    },
    {
      "name": "Festival de Reggaeton",
      "genre": "Música",
      "subgenre": "Reggaeton",
      "tags": ["reggaeton", "urbano", "perreo", "latino", "fiesta"],
      "address": "Fraccionamiento Altabrisa, Calle 15 #200",
      "city": "Mérida",
      "state": "Yucatán",
      "location": "https://maps.app.goo.gl/bcd890example",
      "date": "20/09/2025",
      "image": "https://images.unsplash.com/photo-1574391884720-bbc0878f9a4a"
    },
    {
      "name": "Recital de Piano Clásico",
      "genre": "Música",
      "subgenre": "Clásica",
      "tags": ["piano", "clasica", "beethoven", "chopin", "recital"],
      "address": "Teatro Peón Contreras, Calle 60 #490",
      "city": "Mérida",
      "state": "Yucatán",
      "location": "https://maps.app.goo.gl/efg123example",
      "date": "18/09/2025",
      "image": "https://images.unsplash.com/photo-1520523839897-bd0b52f945a0"
    },
    {
      "name": "Monólogo: Historias de Barrio",
      "genre": "Teatro",
      "subgenre": "Monólogo",
      "tags": ["monologo", "barrio", "historia", "mexicano", "reflejo"],
      "address": "Calle 55 #533 x 64 y 66",
      "city": "Mérida",
      "state": "Yucatán",
      "location": "https://maps.app.goo.gl/hij456example",
      "date": "21/09/2025",
      "image": "https://images.unsplash.com/photo-1594736797933-d0bc2a652895"
    },
    {
      "name": "Concierto de Mariachi",
      "genre": "Música",
      "subgenre": "Mariachi",
      "tags": ["mariachi", "mexico", "tradicional", "vicente", "ranchera"],
      "address": "Plaza de la Maternidad, Paseo de Montejo",
      "city": "Mérida",
      "state": "Yucatán",
      "location": "https://maps.app.goo.gl/klm789example",
      "date": "19/09/2025",
      "image": "https://images.unsplash.com/photo-1559386484-97dfc0e15539"
    },
    {
      "name": "Festival de Hip Hop Underground",
      "genre": "Música",
      "subgenre": "Hip Hop",
      "tags": ["hiphop", "underground", "rap", "freestyle", "urbano"],
      "address": "Parque de la Mejorada, Calle 50 x 57",
      "city": "Mérida",
      "state": "Yucatán",
      "location": "https://maps.app.goo.gl/nop012example",
      "date": "20/09/2025",
      "image": "https://images.unsplash.com/photo-1571019613454-1cb2f99b2d8b"
    },
    {
      "name": "Espectáculo de Danza Folklórica",
      "genre": "Danza",
      "subgenre": "Folklórica",
      "tags": ["danza", "folklorica", "mexico", "trajes", "tradicional"],
      "address": "Centro Cultural Olimpo, Calle 62 x 61 y 63",
      "city": "Mérida",
      "state": "Yucatán",
      "location": "https://maps.app.goo.gl/qrs345example",
      "date": "18/09/2025",
      "image": "https://images.unsplash.com/photo-1547036967-23d11aacaee0"
    },
    {
      "name": "Concierto de Bossa Nova",
      "genre": "Música",
      "subgenre": "Bossa Nova",
      "tags": ["bossa", "brasil", "suave", "guitarra", "jazz"],
      "address": "La Negrita Cantina, Calle 62 #415 x 49 y 51",
      "city": "Mérida",
      "state": "Yucatán",
      "location": "https://maps.app.goo.gl/tuv678example",
      "date": "21/09/2025",
      "image": "https://images.unsplash.com/photo-1493225457124-a3eb161ffa5f"
    },
    {
      "name": "Teatro Musical: Mamma Mia",
      "genre": "Teatro",
      "subgenre": "Musical",
      "tags": ["musical", "abba", "teatro", "canciones", "comedia"],
      "address": "Teatro Armando Manzanero, Calle 62 #495",
      "city": "Mérida",
      "state": "Yucatán",
      "location": "https://maps.app.goo.gl/wxy901example",
      "date": "19/09/2025",
      "image": "https://images.unsplash.com/photo-1507003211169-0a1dd7228f2d"
    },
    {
      "name": "Noche de Karaoke Retro",
      "genre": "Música",
      "subgenre": "Karaoke",
      "tags": ["karaoke", "retro", "80s", "90s", "participativo"],
      "address": "Hennessy's Irish Pub, Paseo de Montejo #486",
      "city": "Mérida",
      "state": "Yucatán",
      "location": "https://maps.app.goo.gl/zab234example",
      "date": "18/09/2025",
      "image": "https://images.unsplash.com/photo-1516450360452-9312f5e86fc7"
    },
    {
      "name": "Concierto de Música de Cámara",
      "genre": "Música",
      "subgenre": "Cámara",
      "tags": ["camara", "clasica", "cuarteto", "violin", "intimista"],
      "address": "Museo de la Canción Yucateca, Calle 57 #464",
      "city": "Mérida",
      "state": "Yucatán",
      "location": "https://maps.app.goo.gl/cde567example",
      "date": "21/09/2025",
      "image": "https://images.unsplash.com/photo-1507838153414-b4b713384a76"
    }
  ]
}